{
"type": "FeatureCollection",
"crs": { "type": "name", "properties": { "name": "urn:ogc:def:crs:OGC:1.3:CRS84" } },
                                                                                
"features": [
{ "type": "Feature", "properties": { "ROT_NAAM": "Basisschool De Verrekijker Locatie Kedichem", "PREVAPCODE": "3.1", "OMSCHRI5": "Onderwijsinstellingen (leerlingen < 12 jr.)", "PRIORITEIT": "2", "STRAAT": "Koningin Wilhelminalaan", "HUISNUMMER": 17.0, "PLAATS": "KEDICHEM" }, "geometry": { "type": "Point", "coordinates": [ 5.050825430680174, 51.860536524099217 ] } },
{ "type": "Feature", "properties": { "ROT_NAAM": "Hersteld Hervormde Gemeente Leerbroek", "PREVAPCODE": "7.4.2", "OMSCHRI5": "Gebedshuis > 250 personen", "PRIORITEIT": "2", "STRAAT": "Dorpsweg", "HUISNUMMER": 1.0, "PLAATS": "LEERBROEK" }, "geometry": { "type": "Point", "coordinates": [ 5.051078476856159, 51.907249540484386 ] } },
{ "type": "Feature", "properties": { "ROT_NAAM": "Spetterbad Leerbroek", "PREVAPCODE": "7.10", "OMSCHRI5": "Zwembad", "PRIORITEIT": "2", "STRAAT": "Leerbroekseweg", "HUISNUMMER": 5.0, "PLAATS": "LEERBROEK" }, "geometry": { "type": "Point", "coordinates": [ 5.044839595107162, 51.909088817128506 ] } },
{ "type": "Feature", "properties": { "ROT_NAAM": "Herberg Restaurant \"De Lingehoeve\"", "PREVAPCODE": "2.1.1", "OMSCHRI5": "Hotel, 10 - 50 personen", "PRIORITEIT": "2", "STRAAT": "Lingedijk", "HUISNUMMER": 199.0, "PLAATS": "OOSTERWIJK" }, "geometry": { "type": "Point", "coordinates": [ 5.079440851091807, 51.877442967417686 ] } },
{ "type": "Feature", "properties": { "ROT_NAAM": "Christelijke Basisschool Klim Op", "PREVAPCODE": "3.1", "OMSCHRI5": "Onderwijsinstellingen (leerlingen < 12 jr.)", "PRIORITEIT": "2", "STRAAT": "Patrimoniumstraat", "HUISNUMMER": 102.0, "PLAATS": "LEERDAM" }, "geometry": { "type": "Point", "coordinates": [ 5.079582873989728, 51.891855163561502 ] } },
{ "type": "Feature", "properties": { "ROT_NAAM": "Islamitische Basisschool El Boukhari", "PREVAPCODE": "3.1", "OMSCHRI5": "Onderwijsinstellingen (leerlingen < 12 jr.)", "PRIORITEIT": "2", "STRAAT": "Populierstraat", "HUISNUMMER": 2.0, "PLAATS": "LEERDAM" }, "geometry": { "type": "Point", "coordinates": [ 5.080531067534248, 51.887215189314709 ] } },
{ "type": "Feature", "properties": { "ROT_NAAM": "Raadsliedenstraat\/Broekgraaf (Syndion)", "PREVAPCODE": "1.6", "OMSCHRI5": "Wooncomplexen niet-zelfredzame bewoners", "PRIORITEIT": "2", "STRAAT": "Raadsliedenstraat", "HUISNUMMER": 76.0, "PLAATS": "LEERDAM" }, "geometry": { "type": "Point", "coordinates": [ 5.081000727859871, 51.893045855220713 ] } },
{ "type": "Feature", "properties": { "ROT_NAAM": "AV Zorggroep - Emma Woonzorgcentrum", "PREVAPCODE": "1.7", "OMSCHRI5": "Bejaardenoorden", "PRIORITEIT": "1", "STRAAT": "Raadsliedenstraat", "HUISNUMMER": 120.0, "PLAATS": "LEERDAM" }, "geometry": { "type": "Point", "coordinates": [ 5.081410311939709, 51.893549356340877 ] } },
{ "type": "Feature", "properties": { "ROT_NAAM": "Anjerstraat Woon- en Dagbestedingsproject", "PREVAPCODE": "1.6", "OMSCHRI5": "Wooncomplexen niet-zelfredzame bewoners", "PRIORITEIT": "2", "STRAAT": "Anjerstraat", "HUISNUMMER": 1.0, "PLAATS": "LEERDAM" }, "geometry": { "type": "Point", "coordinates": [ 5.081982747586547, 51.885375498385564 ] } },
{ "type": "Feature", "properties": { "ROT_NAAM": "Openbare Basisschool Het Mozaïek Locatie onderbouw", "PREVAPCODE": "3.1", "OMSCHRI5": "Onderwijsinstellingen (leerlingen < 12 jr.)", "PRIORITEIT": "2", "STRAAT": "Tiendweg", "HUISNUMMER": 90.0, "PLAATS": "LEERDAM" }, "geometry": { "type": "Point", "coordinates": [ 5.081975467460645, 51.88787564040215 ] } },
{ "type": "Feature", "properties": { "ROT_NAAM": "Jenaplanschool De Wilgenhoek", "PREVAPCODE": "3.1", "OMSCHRI5": "Onderwijsinstellingen (leerlingen < 12 jr.)", "PRIORITEIT": "2", "STRAAT": "Parallelweg", "HUISNUMMER": 24.0, "PLAATS": "LEERDAM" }, "geometry": { "type": "Point", "coordinates": [ 5.084547730192789, 51.894703013626739 ] } },
{ "type": "Feature", "properties": { "ROT_NAAM": "Heerenlanden College Locatie Joost de Jongestraat", "PREVAPCODE": "3.2.3", "OMSCHRI5": "Onderwijsinstelling (leerlingen > 12 jr.) > 500 personen", "PRIORITEIT": "1", "STRAAT": "Joost de Jongestraat", "HUISNUMMER": 55.0, "PLAATS": "LEERDAM" }, "geometry": { "type": "Point", "coordinates": [ 5.08506200440143, 51.891396496861319 ] } },
{ "type": "Feature", "properties": { "ROT_NAAM": "Glasfabriek", "PREVAPCODE": "5.2.2", "OMSCHRI5": "Fabriek, 250 - 500 personen", "PRIORITEIT": "2", "STRAAT": "Tiendweg", "HUISNUMMER": 0.0, "PLAATS": "LEERDAM" }, "geometry": { "type": "Point", "coordinates": [ 5.085913183591492, 51.88866056933923 ] } },
{ "type": "Feature", "properties": { "ROT_NAAM": "KDV 't Grobbehol", "PREVAPCODE": "3.3", "OMSCHRI5": "Kinderdagverblijf", "PRIORITEIT": "2", "STRAAT": "Tiendweg", "HUISNUMMER": 62.0, "PLAATS": "LEERDAM" }, "geometry": { "type": "Point", "coordinates": [ 5.086230343110434, 51.891145256620916 ] } },
{ "type": "Feature", "properties": { "ROT_NAAM": "Rivas - locatie Poort van West", "PREVAPCODE": "1.7", "OMSCHRI5": "Bejaardenoorden", "PRIORITEIT": "1", "STRAAT": "Burgemeester Meesplein", "HUISNUMMER": 5.0, "PLAATS": "LEERDAM" }, "geometry": { "type": "Point", "coordinates": [ 5.086407066909318, 51.89186288581088 ] } },
{ "type": "Feature", "properties": { "ROT_NAAM": "Openbare Basisschool Het Mozaïek Locatie  bovenbouw", "PREVAPCODE": "3.1", "OMSCHRI5": "Onderwijsinstellingen (leerlingen < 12 jr.)", "PRIORITEIT": "2", "STRAAT": "Tiendweg", "HUISNUMMER": 11.0, "PLAATS": "LEERDAM" }, "geometry": { "type": "Point", "coordinates": [ 5.087229822339999, 51.89168153388151 ] } },
{ "type": "Feature", "properties": { "ROT_NAAM": "BSO Bienekebolder", "PREVAPCODE": "3.3", "OMSCHRI5": "Kinderdagverblijf", "PRIORITEIT": "2", "STRAAT": "Tiendweg", "HUISNUMMER": 11.0, "PLAATS": "LEERDAM" }, "geometry": { "type": "Point", "coordinates": [ 5.087231832058747, 51.891639637499154 ] } },
{ "type": "Feature", "properties": { "ROT_NAAM": "KDV De Krullevaar", "PREVAPCODE": "3.3", "OMSCHRI5": "Kinderdagverblijf", "PRIORITEIT": "2", "STRAAT": "Tiendweg", "HUISNUMMER": 11.0, "PLAATS": "LEERDAM" }, "geometry": { "type": "Point", "coordinates": [ 5.08725010345817, 51.891584273675406 ] } },
{ "type": "Feature", "properties": { "ROT_NAAM": "Johannes Calvijnschool", "PREVAPCODE": "3.1", "OMSCHRI5": "Onderwijsinstellingen (leerlingen < 12 jr.)", "PRIORITEIT": "2", "STRAAT": "Buizerdstraat", "HUISNUMMER": 1.0, "PLAATS": "LEERDAM" }, "geometry": { "type": "Point", "coordinates": [ 5.087496603971028, 51.895626903614826 ] } },
{ "type": "Feature", "properties": { "ROT_NAAM": "Sportcentrum Berenschot", "PREVAPCODE": "7.10", "OMSCHRI5": "Zwembad", "PRIORITEIT": "2", "STRAAT": "Tiendweg", "HUISNUMMER": 9.0, "PLAATS": "LEERDAM" }, "geometry": { "type": "Point", "coordinates": [ 5.087651252333711, 51.890972596137395 ] } },
{ "type": "Feature", "properties": { "ROT_NAAM": "Christelijke Basisschool Koningin Wilhelmina", "PREVAPCODE": "3.1", "OMSCHRI5": "Onderwijsinstellingen (leerlingen < 12 jr.)", "PRIORITEIT": "2", "STRAAT": "Drossaardslaan", "HUISNUMMER": 70.0, "PLAATS": "LEERDAM" }, "geometry": { "type": "Point", "coordinates": [ 5.088906187994172, 51.898707260569452 ] } },
{ "type": "Feature", "properties": { "ROT_NAAM": "BSO De Verrekijker", "PREVAPCODE": "3.3", "OMSCHRI5": "Kinderdagverblijf", "PRIORITEIT": "2", "STRAAT": "Drossaardslaan", "HUISNUMMER": 72.0, "PLAATS": "LEERDAM" }, "geometry": { "type": "Point", "coordinates": [ 5.089145097332468, 51.898818608067913 ] } },
{ "type": "Feature", "properties": { "ROT_NAAM": "Basisschool De Verrekijker Locatie Leerdam", "PREVAPCODE": "3.1", "OMSCHRI5": "Onderwijsinstellingen (leerlingen < 12 jr.)", "PRIORITEIT": "2", "STRAAT": "Drossaardslaan", "HUISNUMMER": 72.0, "PLAATS": "LEERDAM" }, "geometry": { "type": "Point", "coordinates": [ 5.089194711250333, 51.897992759366787 ] } },
{ "type": "Feature", "properties": { "ROT_NAAM": "RK Basisschool Floris Radewijnsz", "PREVAPCODE": "3.1", "OMSCHRI5": "Onderwijsinstellingen (leerlingen < 12 jr.)", "PRIORITEIT": "2", "STRAAT": "Drossaardslaan", "HUISNUMMER": 64.0, "PLAATS": "LEERDAM" }, "geometry": { "type": "Point", "coordinates": [ 5.089367625751653, 51.89886448383691 ] } },
{ "type": "Feature", "properties": { "ROT_NAAM": "Parkeergarage 'Centrum Noord'", "PREVAPCODE": "6.1.2", "OMSCHRI5": "Garage-inrichting (alleen opslag\/stalling), > 1000 m2", "PRIORITEIT": "2", "STRAAT": "Vogelsangstraat", "HUISNUMMER": 0.0, "PLAATS": "LEERDAM" }, "geometry": { "type": "Point", "coordinates": [ 5.089707503597467, 51.89320682012174 ] } },
{ "type": "Feature", "properties": { "ROT_NAAM": "Verzorgingshuis Huis ter Leede", "PREVAPCODE": "1.6", "OMSCHRI5": "Wooncomplexen niet-zelfredzame bewoners", "PRIORITEIT": "2", "STRAAT": "Eiland", "HUISNUMMER": 1.0, "PLAATS": "LEERDAM" }, "geometry": { "type": "Point", "coordinates": [ 5.090103408088682, 51.897489148830054 ] } },
{ "type": "Feature", "properties": { "ROT_NAAM": "Noodgemeente Geredja Protestant Maluku di Belenda Maart 1953", "PREVAPCODE": "7.2.2", "OMSCHRI5": "Museum, bibliotheek, 250 - 500 personen", "PRIORITEIT": "2", "STRAAT": "Koekoekstraat", "HUISNUMMER": 21.0, "PLAATS": "LEERDAM" }, "geometry": { "type": "Point", "coordinates": [ 5.090360075500076, 51.896443463184553 ] } },
{ "type": "Feature", "properties": { "ROT_NAAM": "KDV De Matroosjes", "PREVAPCODE": "3.3", "OMSCHRI5": "Kinderdagverblijf", "PRIORITEIT": "2", "STRAAT": "Eiland", "HUISNUMMER": 1.0, "PLAATS": "LEERDAM" }, "geometry": { "type": "Point", "coordinates": [ 5.090836087914465, 51.897687221504363 ] } },
{ "type": "Feature", "properties": { "ROT_NAAM": "Pand 35, Naaiatelier en winkel", "PREVAPCODE": "1.6", "OMSCHRI5": "Wooncomplexen niet-zelfredzame bewoners", "PRIORITEIT": "2", "STRAAT": "Kerkstraat", "HUISNUMMER": 18.0, "PLAATS": "LEERDAM" }, "geometry": { "type": "Point", "coordinates": [ 5.09366757788411, 51.891108496465556 ] } },
{ "type": "Feature", "properties": { "ROT_NAAM": "Stadshaven Leerdam", "PREVAPCODE": "2.4.3", "OMSCHRI5": "Kampeerterrein\/jachthaven > 250 personen", "PRIORITEIT": "2", "STRAAT": "Zuidwal", "HUISNUMMER": 0.0, "PLAATS": "LEERDAM" }, "geometry": { "type": "Point", "coordinates": [ 5.093857014452725, 51.88935678579152 ] } },
{ "type": "Feature", "properties": { "ROT_NAAM": "Hotel Grand Café Lucullus", "PREVAPCODE": "2.1.1", "OMSCHRI5": "Hotel, 10 - 50 personen", "PRIORITEIT": "2", "STRAAT": "Vlietskant", "HUISNUMMER": 46.0, "PLAATS": "LEERDAM" }, "geometry": { "type": "Point", "coordinates": [ 5.096107919264538, 51.892853517246429 ] } },
{ "type": "Feature", "properties": { "ROT_NAAM": "Heerenlanden College Locatie Eksterlaan", "PREVAPCODE": "3.2.3", "OMSCHRI5": "Onderwijsinstelling (leerlingen > 12 jr.) > 500 personen", "PRIORITEIT": "1", "STRAAT": "Eksterlaan", "HUISNUMMER": 48.0, "PLAATS": "LEERDAM" }, "geometry": { "type": "Point", "coordinates": [ 5.096126241538849, 51.897461694165898 ] } },
{ "type": "Feature", "properties": { "ROT_NAAM": "Christelijke Basisschool Ichthus Locatie Juliana", "PREVAPCODE": "3.1", "OMSCHRI5": "Onderwijsinstellingen (leerlingen < 12 jr.)", "PRIORITEIT": "2", "STRAAT": "Koningin Emmalaan", "HUISNUMMER": 45.0, "PLAATS": "LEERDAM" }, "geometry": { "type": "Point", "coordinates": [ 5.096991185102809, 51.893979242776417 ] } },
{ "type": "Feature", "properties": { "ROT_NAAM": "Basisschool De Hobbitstee", "PREVAPCODE": "3.1", "OMSCHRI5": "Onderwijsinstellingen (leerlingen < 12 jr.)", "PRIORITEIT": "2", "STRAAT": "Prinses Irenelaan", "HUISNUMMER": 2.0, "PLAATS": "LEERDAM" }, "geometry": { "type": "Point", "coordinates": [ 5.101607388716208, 51.892417049602948 ] } },
{ "type": "Feature", "properties": { "ROT_NAAM": "Verpleeghuis Lingesteyn", "PREVAPCODE": "4.4", "OMSCHRI5": "Verpleegtehuizen", "PRIORITEIT": "1", "STRAAT": "Koningin Emmalaan", "HUISNUMMER": 82.0, "PLAATS": "LEERDAM" }, "geometry": { "type": "Point", "coordinates": [ 5.106766773124055, 51.891058659330838 ] } },
{ "type": "Feature", "properties": { "ROT_NAAM": "Lingepolikliniek Beatrixziekenhuis", "PREVAPCODE": "4.2", "OMSCHRI5": "Klinieken (poli-, psychiatrische)", "PRIORITEIT": "1", "STRAAT": "Koningin Emmalaan", "HUISNUMMER": 82.0, "PLAATS": "LEERDAM" }, "geometry": { "type": "Point", "coordinates": [ 5.107343091245403, 51.890960619347936 ] } },
{ "type": "Feature", "properties": { "ROT_NAAM": "Lingebolder", "PREVAPCODE": "1.6", "OMSCHRI5": "Wooncomplexen niet-zelfredzame bewoners", "PRIORITEIT": "2", "STRAAT": "Koningin Emmalaan", "HUISNUMMER": 84.0, "PLAATS": "LEERDAM" }, "geometry": { "type": "Point", "coordinates": [ 5.109086841826723, 51.891004108575913 ] } },
{ "type": "Feature", "properties": { "ROT_NAAM": "De Uitspanning", "PREVAPCODE": "7.7.1", "OMSCHRI5": null, "PRIORITEIT": "3", "STRAAT": "Zuiderlingedijk", "HUISNUMMER": 23.0, "PLAATS": "HEUKELUM" }, "geometry": { "type": "Point", "coordinates": [ 5.051864085319267, 51.856449565485583 ] } },
{ "type": "Feature", "properties": { "ROT_NAAM": "Restaurant \"Lotus\"", "PREVAPCODE": "7.7.1", "OMSCHRI5": null, "PRIORITEIT": "3", "STRAAT": "Voorstraat", "HUISNUMMER": 44.0, "PLAATS": "BEESD" }, "geometry": { "type": "Point", "coordinates": [ 5.195027440238952, 51.88458087046088 ] } },
{ "type": "Feature", "properties": { "ROT_NAAM": "De Rotonde", "PREVAPCODE": "7.7.3", "OMSCHRI5": null, "PRIORITEIT": "1", "STRAAT": "Panweg", "HUISNUMMER": 1.0, "PLAATS": "ENSPIJK" }, "geometry": { "type": "Point", "coordinates": [ 5.214167779968796, 51.877833410919671 ] } },
{ "type": "Feature", "properties": { "ROT_NAAM": "Restaurant \"Rust Wat \"", "PREVAPCODE": "7.7.1", "OMSCHRI5": null, "PRIORITEIT": "3", "STRAAT": "Lingedijk", "HUISNUMMER": 16.0, "PLAATS": "RHENOY" }, "geometry": { "type": "Point", "coordinates": [ 5.155517638391842, 51.893587841150719 ] } },
{ "type": "Feature", "properties": { "ROT_NAAM": "Pannekoekenboerderij \"Stapel(b)akker\"", "PREVAPCODE": "7.7.1", "OMSCHRI5": null, "PRIORITEIT": "3", "STRAAT": "Oude Waag", "HUISNUMMER": 21.0, "PLAATS": "BEESD" }, "geometry": { "type": "Point", "coordinates": [ 5.198357052827559, 51.894140836966372 ] } },
{ "type": "Feature", "properties": { "ROT_NAAM": "Discotheek \"De Rodenburg\"", "PREVAPCODE": "7.7.3", "OMSCHRI5": null, "PRIORITEIT": "1", "STRAAT": "Homburg", "HUISNUMMER": 26.0, "PLAATS": "BEESD" }, "geometry": { "type": "Point", "coordinates": [ 5.191983913216061, 51.89309677326257 ] } },
{ "type": "Feature", "properties": { "ROT_NAAM": "De Schildkamp bv", "PREVAPCODE": "7.7.3", "OMSCHRI5": null, "PRIORITEIT": "1", "STRAAT": "Leerdamseweg", "HUISNUMMER": 44.0, "PLAATS": "ASPEREN" }, "geometry": { "type": "Point", "coordinates": [ 5.102514793215366, 51.883098888225035 ] } },
{ "type": "Feature", "properties": { "ROT_NAAM": "Café De Notenboom", "PREVAPCODE": "7.7.2", "OMSCHRI5": null, "PRIORITEIT": "2", "STRAAT": "Middenstraat", "HUISNUMMER": 8.0, "PLAATS": "BEESD" }, "geometry": { "type": "Point", "coordinates": [ 5.19645893291721, 51.886102226602318 ] } },
{ "type": "Feature", "properties": { "ROT_NAAM": "Woongebouw Leyenburg", "PREVAPCODE": "1.3", "OMSCHRI5": null, "PRIORITEIT": "3", "STRAAT": "Leijenburgplein", "HUISNUMMER": 4.0, "PLAATS": "HEUKELUM" }, "geometry": { "type": "Point", "coordinates": [ 5.073771138956431, 51.870621808519495 ] } },
{ "type": "Feature", "properties": { "ROT_NAAM": "Kooise Zorg Boerderij Camping", "PREVAPCODE": "7.7.1", "OMSCHRI5": null, "PRIORITEIT": "3", "STRAAT": "Acquoysemeer", "HUISNUMMER": 24.0, "PLAATS": "ACQUOY" }, "geometry": { "type": "Point", "coordinates": [ 5.136134185878599, 51.902059974650967 ] } },
{ "type": "Feature", "properties": { "ROT_NAAM": "Verzorgingshuis Lingehof", "PREVAPCODE": "1.7", "OMSCHRI5": null, "PRIORITEIT": "1", "STRAAT": "Huis Te Beestlaan", "HUISNUMMER": 39.0, "PLAATS": "BEESD" }, "geometry": { "type": "Point", "coordinates": [ 5.1912567073161, 51.886614993145074 ] } },
{ "type": "Feature", "properties": { "ROT_NAAM": "Tapperij Lingezicht", "PREVAPCODE": "7.7.1", "OMSCHRI5": null, "PRIORITEIT": "3", "STRAAT": "Lingedijk", "HUISNUMMER": 78.0, "PLAATS": "ACQUOY" }, "geometry": { "type": "Point", "coordinates": [ 5.136127957579324, 51.879741958326719 ] } },
{ "type": "Feature", "properties": { "ROT_NAAM": "Voetbalvereniging \"Heukelum\"", "PREVAPCODE": "7.7.2", "OMSCHRI5": null, "PRIORITEIT": "2", "STRAAT": "Groeneweg", "HUISNUMMER": 1.0, "PLAATS": "HEUKELUM" }, "geometry": { "type": "Point", "coordinates": [ 5.062400633841592, 51.868775275171082 ] } },
{ "type": "Feature", "properties": { "ROT_NAAM": "Partycentrum \"Betuwestrand\"", "PREVAPCODE": "7.7.1", "OMSCHRI5": null, "PRIORITEIT": "3", "STRAAT": "A Kraalweg", "HUISNUMMER": 34.0, "PLAATS": "BEESD" }, "geometry": { "type": "Point", "coordinates": [ 5.18779192568477, 51.898204082331311 ] } },
{ "type": "Feature", "properties": { "ROT_NAAM": "Café Cafetaria \"De Wiel\"", "PREVAPCODE": "7.7.1", "OMSCHRI5": null, "PRIORITEIT": "3", "STRAAT": "Leerdamseweg", "HUISNUMMER": 39.0, "PLAATS": "ASPEREN" }, "geometry": { "type": "Point", "coordinates": [ 5.103849980186904, 51.883263905067594 ] } },
{ "type": "Feature", "properties": { "ROT_NAAM": "Stichting Opwaarts \"Dorpshuis De Betuwe Poort\"", "PREVAPCODE": "7.7.2", "OMSCHRI5": null, "PRIORITEIT": "2", "STRAAT": "Kornelis van Wijnenstr", "HUISNUMMER": 1.0, "PLAATS": "RHENOY" }, "geometry": { "type": "Point", "coordinates": [ 5.150818084947399, 51.88112067144656 ] } },
{ "type": "Feature", "properties": { "ROT_NAAM": "Wegrestaurant Goudreinet Leuven\/Vuren", "PREVAPCODE": "7.7.2", "OMSCHRI5": null, "PRIORITEIT": "2", "STRAAT": "Zeiving", "HUISNUMMER": 21.0, "PLAATS": "VUREN" }, "geometry": { "type": "Point", "coordinates": [ 5.095319093333009, 51.843739157065492 ] } },
{ "type": "Feature", "properties": { "ROT_NAAM": "Restaurant \"Oud Asperen\"", "PREVAPCODE": "7.7.1", "OMSCHRI5": null, "PRIORITEIT": "3", "STRAAT": "Achterstraat", "HUISNUMMER": 1.0, "PLAATS": "ASPEREN" }, "geometry": { "type": "Point", "coordinates": [ 5.11439459332175, 51.883261889568452 ] } },
{ "type": "Feature", "properties": { "ROT_NAAM": "Café \"De Zwaan\"", "PREVAPCODE": "7.7.1", "OMSCHRI5": null, "PRIORITEIT": "3", "STRAAT": "Gasthuisstraat", "HUISNUMMER": 36.0, "PLAATS": "HEUKELUM" }, "geometry": { "type": "Point", "coordinates": [ 5.07556404247909, 51.873817446634725 ] } },
{ "type": "Feature", "properties": { "ROT_NAAM": "Café \"De Zwaan\"  Enspijk", "PREVAPCODE": "7.7.1", "OMSCHRI5": null, "PRIORITEIT": "3", "STRAAT": "Molenkampstraat", "HUISNUMMER": 5.0, "PLAATS": "ENSPIJK" }, "geometry": { "type": "Point", "coordinates": [ 5.210503445868451, 51.882726592186565 ] } },
{ "type": "Feature", "properties": { "ROT_NAAM": "Taveerne \"Fort  Asperen\"", "PREVAPCODE": "7.7.1", "OMSCHRI5": null, "PRIORITEIT": "3", "STRAAT": "Langendijk", "HUISNUMMER": 60.0, "PLAATS": "ACQUOY" }, "geometry": { "type": "Point", "coordinates": [ 5.120878632799558, 51.877299516045738 ] } },
{ "type": "Feature", "properties": { "ROT_NAAM": "Dorpshuis \"Meeuwensteijn\"", "PREVAPCODE": "7.7.2", "OMSCHRI5": null, "PRIORITEIT": "2", "STRAAT": "Prins Bernhardstraat", "HUISNUMMER": 1.0, "PLAATS": "HEUKELUM" }, "geometry": { "type": "Point", "coordinates": [ 5.074815949172383, 51.870714474652075 ] } },
{ "type": "Feature", "properties": { "ROT_NAAM": "Pannenkoekenhuis Lingebos", "PREVAPCODE": "7.7.1", "OMSCHRI5": null, "PRIORITEIT": "3", "STRAAT": "Haarweg", "HUISNUMMER": 9.0, "PLAATS": "VUREN" }, "geometry": { "type": "Point", "coordinates": [ 5.05219046603957, 51.84574531666275 ] } },
{ "type": "Feature", "properties": { "ROT_NAAM": "Gemeentehuis Lingewaal", "PREVAPCODE": "5.1.1", "OMSCHRI5": null, "PRIORITEIT": "3", "STRAAT": "Raadhuisplein", "HUISNUMMER": 1.0, "PLAATS": "ASPEREN" }, "geometry": { "type": "Point", "coordinates": [ 5.111874833809241, 51.882042587901459 ] } },
{ "type": "Feature", "properties": { "ROT_NAAM": "Verenigingsgebouw \"De Schakel\"", "PREVAPCODE": "7.3.1", "OMSCHRI5": null, "PRIORITEIT": "3", "STRAAT": "Lingedijk", "HUISNUMMER": 60.0, "PLAATS": "ACQUOY" }, "geometry": { "type": "Point", "coordinates": [ 5.135005513436441, 51.880485586881171 ] } },
{ "type": "Feature", "properties": { "ROT_NAAM": "Ruitersportcentrum Lingebos", "PREVAPCODE": "7.9.1", "OMSCHRI5": null, "PRIORITEIT": "3", "STRAAT": "Haarweg", "HUISNUMMER": 7.0, "PLAATS": "VUREN" }, "geometry": { "type": "Point", "coordinates": [ 5.048008748971102, 51.8460389197203 ] } },
{ "type": "Feature", "properties": { "ROT_NAAM": "De Dorpskring", "PREVAPCODE": "7.3.1", "OMSCHRI5": null, "PRIORITEIT": "3", "STRAAT": "Voorstraat", "HUISNUMMER": 23.0, "PLAATS": "BEESD" }, "geometry": { "type": "Point", "coordinates": [ 5.195507017608164, 51.884518735242573 ] } },
{ "type": "Feature", "properties": { "ROT_NAAM": "Christelijke Basisschool \"De Open Poort\"", "PREVAPCODE": "3.1", "OMSCHRI5": null, "PRIORITEIT": "2", "STRAAT": "Leerdamseweg", "HUISNUMMER": 1.0, "PLAATS": "ASPEREN" }, "geometry": { "type": "Point", "coordinates": [ 5.109384923106628, 51.88071544222543 ] } },
{ "type": "Feature", "properties": { "ROT_NAAM": "Kampeerterrein \"Het Lingebos\"", "PREVAPCODE": "2.4.1", "OMSCHRI5": null, "PRIORITEIT": "4", "STRAAT": "Haarweg", "HUISNUMMER": 6.0, "PLAATS": "VUREN" }, "geometry": { "type": "Point", "coordinates": [ 5.039565777893501, 51.845627730662414 ] } },
{ "type": "Feature", "properties": { "ROT_NAAM": "Christelijke Basisschool \"De Wegwijzer\"", "PREVAPCODE": "3.1", "OMSCHRI5": null, "PRIORITEIT": "2", "STRAAT": "Leyenburgplein", "HUISNUMMER": 1.0, "PLAATS": "HEUKELUM" }, "geometry": { "type": "Point", "coordinates": [ 5.074983519264146, 51.87167667510132 ] } },
{ "type": "Feature", "properties": { "ROT_NAAM": "Openbare basisschool \"De Zandheuvel\"", "PREVAPCODE": "3.1", "OMSCHRI5": null, "PRIORITEIT": "2", "STRAAT": "Bijdendijkstraat", "HUISNUMMER": 1.0, "PLAATS": "ASPEREN" }, "geometry": { "type": "Point", "coordinates": [ 5.104243934787397, 51.880667223301387 ] } },
{ "type": "Feature", "properties": { "ROT_NAAM": "Prot. Chr. Basisschool Eben Haëzerschool", "PREVAPCODE": "3.1", "OMSCHRI5": null, "PRIORITEIT": "2", "STRAAT": "Leerbroekseweg", "HUISNUMMER": 7.0, "PLAATS": "LEERBROEK" }, "geometry": { "type": "Point", "coordinates": [ 5.045675351489241, 51.910167912148033 ] } },
{ "type": "Feature", "properties": { "ROT_NAAM": "Openbare Basisschool \"De Springplank\"", "PREVAPCODE": "3.1", "OMSCHRI5": null, "PRIORITEIT": "2", "STRAAT": "Achterweg", "HUISNUMMER": 9.0, "PLAATS": "RUMPT" }, "geometry": { "type": "Point", "coordinates": [ 5.178208211443406, 51.881388283650281 ] } },
{ "type": "Feature", "properties": { "ROT_NAAM": "Dorpshuis \"Albertine\"", "PREVAPCODE": "7.3.1", "OMSCHRI5": null, "PRIORITEIT": "3", "STRAAT": "R.M. van Gellicumstraat", "HUISNUMMER": 3.0, "PLAATS": "RUMPT" }, "geometry": { "type": "Point", "coordinates": [ 5.180626870328354, 51.882866643517815 ] } },
{ "type": "Feature", "properties": { "ROT_NAAM": "Openbare Basisschool \"De Bloeiende Betuwe\"", "PREVAPCODE": "3.1", "OMSCHRI5": null, "PRIORITEIT": "2", "STRAAT": "Rhenoyseweg", "HUISNUMMER": 34.0, "PLAATS": "RHENOY" }, "geometry": { "type": "Point", "coordinates": [ 5.143238694427781, 51.883451137527274 ] } },
{ "type": "Feature", "properties": { "ROT_NAAM": "Ruitersport Centrum Lingebos v.o.f.", "PREVAPCODE": "7.11.1", "OMSCHRI5": null, "PRIORITEIT": "4", "STRAAT": "Haarweg", "HUISNUMMER": 7.0, "PLAATS": "VUREN" }, "geometry": { "type": "Point", "coordinates": [ 5.048008748971102, 51.8460389197203 ] } },
{ "type": "Feature", "properties": { "ROT_NAAM": "Gemeenschapsruimte Ned.Herv. kerk Beesd \"Het Trefpunt\"", "PREVAPCODE": "7.3.1", "OMSCHRI5": null, "PRIORITEIT": "3", "STRAAT": "Wilhelminastraat", "HUISNUMMER": 31.0, "PLAATS": "BEESD" }, "geometry": { "type": "Point", "coordinates": [ 5.193819595277543, 51.888497793750261 ] } },
{ "type": "Feature", "properties": { "ROT_NAAM": "Frupaks Fruit bv", "PREVAPCODE": "5.3.2", "OMSCHRI5": null, "PRIORITEIT": "2", "STRAAT": "Beemdstraat", "HUISNUMMER": 12.0, "PLAATS": "DEIL" }, "geometry": { "type": "Point", "coordinates": [ 5.231405653133914, 51.886306528763029 ] } },
{ "type": "Feature", "properties": { "ROT_NAAM": "Openbare Basisschool \"De Minzerie\"", "PREVAPCODE": "3.1", "OMSCHRI5": null, "PRIORITEIT": "2", "STRAAT": "Netstraat", "HUISNUMMER": 1.0, "PLAATS": "ENSPIJK" }, "geometry": { "type": "Point", "coordinates": [ 5.212565880454693, 51.882720685545493 ] } },
{ "type": "Feature", "properties": { "ROT_NAAM": "Office Depot - Viking Direct", "PREVAPCODE": "5.3.2", "OMSCHRI5": null, "PRIORITEIT": "2", "STRAAT": "Stationsweg", "HUISNUMMER": 2.0, "PLAATS": "BEESD" }, "geometry": { "type": "Point", "coordinates": [ 5.194719341358653, 51.898889748768802 ] } },
{ "type": "Feature", "properties": { "ROT_NAAM": "Christelijke Basisschool \"Lingelaar\"", "PREVAPCODE": "3.1", "OMSCHRI5": null, "PRIORITEIT": "2", "STRAAT": "Jeugdlaan", "HUISNUMMER": 4.0, "PLAATS": "BEESD" }, "geometry": { "type": "Point", "coordinates": [ 5.192691710136403, 51.887309476135137 ] } },
{ "type": "Feature", "properties": { "ROT_NAAM": "Openbare Basisschool \"De Rietput\"", "PREVAPCODE": "3.1", "OMSCHRI5": null, "PRIORITEIT": "2", "STRAAT": "Voorste Gewind", "HUISNUMMER": 10.0, "PLAATS": "HEUKELUM" }, "geometry": { "type": "Point", "coordinates": [ 5.076205393836433, 51.871365322790446 ] } },
{ "type": "Feature", "properties": { "ROT_NAAM": "Hervormde Gemeente Enspijk", "PREVAPCODE": "7.4.1", "OMSCHRI5": null, "PRIORITEIT": "3", "STRAAT": "Molenkampstraat", "HUISNUMMER": 2.0, "PLAATS": "ENSPIJK" }, "geometry": { "type": "Point", "coordinates": [ 5.211589656513954, 51.883519191154164 ] } },
{ "type": "Feature", "properties": { "ROT_NAAM": "Rooms Katholieke Basisschool \"Antonius\"", "PREVAPCODE": "3.1", "OMSCHRI5": null, "PRIORITEIT": "2", "STRAAT": "Jeugdlaan", "HUISNUMMER": 1.0, "PLAATS": "BEESD" }, "geometry": { "type": "Point", "coordinates": [ 5.19398605328616, 51.886943089737869 ] } },
{ "type": "Feature", "properties": { "ROT_NAAM": "Kerk en jeugdgebouw N.H. gemeente Beesd", "PREVAPCODE": "7.4.1", "OMSCHRI5": null, "PRIORITEIT": "3", "STRAAT": "Voorstraat", "HUISNUMMER": 90.0, "PLAATS": "BEESD" }, "geometry": { "type": "Point", "coordinates": [ 5.192022265948744, 51.884252340182421 ] } },
{ "type": "Feature", "properties": { "ROT_NAAM": "Nederlands Hervormde Gemeente Heukelum", "PREVAPCODE": "7.4.1", "OMSCHRI5": null, "PRIORITEIT": "3", "STRAAT": "Torenstraat", "HUISNUMMER": 1.0, "PLAATS": "HEUKELUM" }, "geometry": { "type": "Point", "coordinates": [ 5.07845254022722, 51.873995850806786 ] } },
{ "type": "Feature", "properties": { "ROT_NAAM": "Kerk\/bijeenkomstenzaal Gereformeerde kerk Asperen", "PREVAPCODE": "7.4.1", "OMSCHRI5": null, "PRIORITEIT": "3", "STRAAT": "Middelweg", "HUISNUMMER": 5.0, "PLAATS": "ASPEREN" }, "geometry": { "type": "Point", "coordinates": [ 5.114463908843185, 51.881410452710533 ] } },
{ "type": "Feature", "properties": { "ROT_NAAM": "Kerkgebouw Hervormde Gemeente Acquoy", "PREVAPCODE": "7.4.1", "OMSCHRI5": null, "PRIORITEIT": "3", "STRAAT": "Lingedijk", "HUISNUMMER": 96.0, "PLAATS": "ACQUOY" }, "geometry": { "type": "Point", "coordinates": [ 5.137351574424321, 51.879079429172833 ] } },
{ "type": "Feature", "properties": { "ROT_NAAM": "Kerk Protestante Gemeente Rhenoy-Gellicum", "PREVAPCODE": "7.4.1", "OMSCHRI5": null, "PRIORITEIT": "3", "STRAAT": "Dorpsstraat", "HUISNUMMER": 43.0, "PLAATS": "RHENOY" }, "geometry": { "type": "Point", "coordinates": [ 5.154442005669617, 51.882467164614212 ] } },
{ "type": "Feature", "properties": { "ROT_NAAM": "Hervormde Gemeente Rumpt", "PREVAPCODE": "7.4.1", "OMSCHRI5": null, "PRIORITEIT": "3", "STRAAT": "Middenstraat", "HUISNUMMER": 43.0, "PLAATS": "RUMPT" }, "geometry": { "type": "Point", "coordinates": [ 5.177118500047204, 51.884595171333743 ] } },
{ "type": "Feature", "properties": { "ROT_NAAM": "Begeleidende Woonvorm Asperen \"De Grote Rivieren\"", "PREVAPCODE": "1.5", "OMSCHRI5": null, "PRIORITEIT": "3", "STRAAT": "Schepenlaan", "HUISNUMMER": 19.0, "PLAATS": "ASPEREN" }, "geometry": { "type": "Point", "coordinates": [ 5.103302545990198, 51.882552504960167 ] } },
{ "type": "Feature", "properties": { "ROT_NAAM": "Kerk Hervormde Gemeente Asperen", "PREVAPCODE": "7.4.1", "OMSCHRI5": null, "PRIORITEIT": "3", "STRAAT": "Voorstraat", "HUISNUMMER": 2.0, "PLAATS": "ASPEREN" }, "geometry": { "type": "Point", "coordinates": [ 5.11226002486244, 51.880803098698784 ] } },
{ "type": "Feature", "properties": { "ROT_NAAM": "Begeleid wonen Asperen", "PREVAPCODE": "1.5", "OMSCHRI5": null, "PRIORITEIT": "3", "STRAAT": "Beukenlaan", "HUISNUMMER": 21.0, "PLAATS": "ASPEREN" }, "geometry": { "type": "Point", "coordinates": [ 5.106986442974536, 51.883388273552669 ] } },
{ "type": "Feature", "properties": { "ROT_NAAM": "Frutéra Crop bv", "PREVAPCODE": "5.2.3", "OMSCHRI5": null, "PRIORITEIT": "1", "STRAAT": "Polderdijk", "HUISNUMMER": 2.0, "PLAATS": "ENSPIJK" }, "geometry": { "type": "Point", "coordinates": [ 5.204862006238271, 51.880650665340681 ] } },
{ "type": "Feature", "properties": { "ROT_NAAM": "Kerk Protestante Gem. Rhenoy-Gellicum", "PREVAPCODE": "7.4.1", "OMSCHRI5": null, "PRIORITEIT": "3", "STRAAT": "Lingedijk", "HUISNUMMER": 29.0, "PLAATS": "GELLICUM" }, "geometry": { "type": "Point", "coordinates": [ 5.155671151148451, 51.877867567903053 ] } },
{ "type": "Feature", "properties": { "ROT_NAAM": "Stichting Dorpshuis Asperen E.M.M.", "PREVAPCODE": "7.3.2", "OMSCHRI5": null, "PRIORITEIT": "2", "STRAAT": "Van Langerakstraat", "HUISNUMMER": 6.0, "PLAATS": "ASPEREN" }, "geometry": { "type": "Point", "coordinates": [ 5.10819279439627, 51.880910361574806 ] } },
{ "type": "Feature", "properties": { "ROT_NAAM": "Van Hees Hekwerken", "PREVAPCODE": "5.3.1", "OMSCHRI5": null, "PRIORITEIT": "4", "STRAAT": "Huigenstraat", "HUISNUMMER": 11.0, "PLAATS": "ACQUOY" }, "geometry": { "type": "Point", "coordinates": [ 5.132372598911931, 51.881225939385338 ] } },
{ "type": "Feature", "properties": { "ROT_NAAM": "Kroeze & Zn Hoveniersbedijf\/Tuincentrum", "PREVAPCODE": "5.3.1", "OMSCHRI5": null, "PRIORITEIT": "4", "STRAAT": "Dr A Kuyperweg", "HUISNUMMER": 73.0, "PLAATS": "BEESD" }, "geometry": { "type": "Point", "coordinates": [ 5.181009738370401, 51.891235436251748 ] } },
{ "type": "Feature", "properties": { "ROT_NAAM": "Hoveniersbedrijf - Tuincentrum Kroeze", "PREVAPCODE": "5.3.1", "OMSCHRI5": null, "PRIORITEIT": "4", "STRAAT": "Dr A Kuyperweg", "HUISNUMMER": 73.0, "PLAATS": "BEESD" }, "geometry": { "type": "Point", "coordinates": [ 5.181009738370401, 51.891235436251748 ] } },
{ "type": "Feature", "properties": { "ROT_NAAM": "Hotel \"De Schildkamp\"", "PREVAPCODE": "2.1.2", "OMSCHRI5": null, "PRIORITEIT": "1", "STRAAT": "Leerdamseweg", "HUISNUMMER": 44.0, "PLAATS": "ASPEREN" }, "geometry": { "type": "Point", "coordinates": [ 5.102514793215366, 51.883098888225035 ] } },
{ "type": "Feature", "properties": { "ROT_NAAM": "Volvo Cars Nederland bv", "PREVAPCODE": "5.1.2", "OMSCHRI5": null, "PRIORITEIT": "2", "STRAAT": "Stationsweg", "HUISNUMMER": 2.0, "PLAATS": "BEESD" }, "geometry": { "type": "Point", "coordinates": [ 5.193717332382906, 51.898771256400323 ] } },
{ "type": "Feature", "properties": { "ROT_NAAM": "Tennisvereniging De Belt", "PREVAPCODE": "7.6.1", "OMSCHRI5": null, "PRIORITEIT": "3", "STRAAT": "Kerkweg", "HUISNUMMER": 8.0, "PLAATS": "HEUKELUM" }, "geometry": { "type": "Point", "coordinates": [ 5.070848479863688, 51.867072558233509 ] } },
{ "type": "Feature", "properties": { "ROT_NAAM": "Heerlijkheid Mariënwaerdt", "PREVAPCODE": "1.2", "OMSCHRI5": null, "PRIORITEIT": "2", "STRAAT": "Mariënwaerdt 't Klooster", "HUISNUMMER": 5.0, "PLAATS": "BEESD" }, "geometry": { "type": "Point", "coordinates": [ 5.218743157072908, 51.889264198171219 ] } },
{ "type": "Feature", "properties": { "ROT_NAAM": "Peuterspeelzaal \"De Knuffel\"", "PREVAPCODE": "3.4", "OMSCHRI5": null, "PRIORITEIT": "3", "STRAAT": "Jeugdlaan", "HUISNUMMER": 3.0, "PLAATS": "BEESD" }, "geometry": { "type": "Point", "coordinates": [ 5.193202152408572, 51.886833939052025 ] } },
{ "type": "Feature", "properties": { "ROT_NAAM": "Peuterspeelzaal \"Piggelmee\"", "PREVAPCODE": "3.4", "OMSCHRI5": null, "PRIORITEIT": "3", "STRAAT": "Van Langerakstraat", "HUISNUMMER": 4.0, "PLAATS": "ASPEREN" }, "geometry": { "type": "Point", "coordinates": [ 5.10819279439627, 51.880910361574806 ] } },
{ "type": "Feature", "properties": { "ROT_NAAM": "Peuterspeelzaal \"Het Krakelingetje\"", "PREVAPCODE": "3.4", "OMSCHRI5": null, "PRIORITEIT": "3", "STRAAT": "Leyenburgplein", "HUISNUMMER": 2.0, "PLAATS": "HEUKELUM" }, "geometry": { "type": "Point", "coordinates": [ 5.075321719040749, 51.871066364489984 ] } },
{ "type": "Feature", "properties": { "ROT_NAAM": "Kleyn Trucks bv", "PREVAPCODE": "6.1.1", "OMSCHRI5": null, "PRIORITEIT": "3", "STRAAT": "Zeiving", "HUISNUMMER": 8.0, "PLAATS": "VUREN" }, "geometry": { "type": "Point", "coordinates": [ 5.094604714416718, 51.844249717714447 ] } },
{ "type": "Feature", "properties": { "ROT_NAAM": "Verz.hs. \"De Verre Horizon\"", "PREVAPCODE": null, "OMSCHRI5": "25 bedlegerige clienten", "PRIORITEIT": "2", "STRAAT": null, "HUISNUMMER": 0.0, "PLAATS": null }, "geometry": { "type": "Point", "coordinates": [ 5.171364397098124, 51.880549152226443 ] } },
{ "type": "Feature", "properties": { "ROT_NAAM": "Psych.Inr. \"Nooitgedacht\"", "PREVAPCODE": null, "OMSCHRI5": "20 patienten waarvan 15 patienten onder speciaal toezicht", "PRIORITEIT": "1", "STRAAT": null, "HUISNUMMER": 0.0, "PLAATS": null }, "geometry": { "type": "Point", "coordinates": [ 5.174304912760031, 51.881487988237112 ] } }
]
}
